[
      {
         "formatted_address" : "200 Larkin St, San Francisco, CA 94102, United States",
         "lat" : 37.78016369999999,
         "lng" : -122.4161985,
         "icon" : "https://maps.gstatic.com/mapfiles/place_api/icons/museum-71.png",
         "name" : "Asian Art Museum",
         "rating" : 4.4,
         "place_id" : "ChIJkQQVTZqAhYARHxPt2iJkm1Q",
      },
      {
         "formatted_address" : "151 3rd St, San Francisco, CA 94103, United States",
         "lat" : 37.7857182,
         "lng" : -122.4010508,
         "icon" : "https://maps.gstatic.com/mapfiles/place_api/icons/museum-71.png",
         "name" : "San Francisco Museum of Modern Art",
         "rating" : 4.3,
         "place_id" : "ChIJ53I1Yn2AhYAR_Vl1vNygfMg",
      },
      {
         "formatted_address" : "50 Hagiwara Tea Garden Dr, San Francisco, CA 94118, United States",
         "lat" : 37.771516,
         "lng" : -122.468647,
         "icon" : "https://maps.gstatic.com/mapfiles/place_api/icons/museum-71.png",
         "name" : "Fine Arts Museums of San Francisco",
         "rating" : 4.4,
         "place_id" : "ChIJVVVVVXKHhYARPWqqMGP79Yk",
      },
      {
         "formatted_address" : "104 Montgomery St, San Francisco, CA 94129, United States",
         "lat" : 37.8014548,
         "lng" : -122.4586558,
         "icon" : "https://maps.gstatic.com/mapfiles/place_api/icons/museum-71.png",
         "name" : "The Walt Disney Family Museum",
         "rating" : 4.5,
         "place_id" : "ChIJ5f7ZKtiGhYAR9WaYFS6bH1U",
      },
      {
         "formatted_address" : "540 Broadway, San Francisco, CA 94133, United States",
         "lat" : 37.79806490000001,
         "lng" : -122.4062256,
         "icon" : "https://maps.gstatic.com/mapfiles/place_api/icons/museum-71.png",
         "name" : "Beat Museum",
         "rating" : 4.1,
         "place_id" : "ChIJY6qvZfSAhYARE-zWxUt9vxE",
      },
      {
         "formatted_address" : "736 Mission St, San Francisco, CA 94103, United States",
         "lat" : 37.78600849999999,
         "lng" : -122.4037009,
         "icon" : "https://maps.gstatic.com/mapfiles/place_api/icons/museum-71.png",
         "name" : "Contemporary Jewish Museum",
         "rating" : 4,
         "place_id" : "ChIJQ4ofxYeAhYARnLQjgdsj76k",
      },
      {
         "formatted_address" : "55 Music Concourse Dr, San Francisco, CA 94118, United States",
         "lat" : 37.76986459999999,
         "lng" : -122.4660947,
         "icon" : "https://maps.gstatic.com/mapfiles/place_api/icons/museum-71.png",
         "name" : "California Academy of Sciences",
         "rating" : 4.4,
         "place_id" : "ChIJIUT7rEOHhYARucp3wM-HhBs",
      },
      {
         "formatted_address" : "100 34th Ave, San Francisco, CA 94121, United States",
         "lat" : 37.7844661,
         "lng" : -122.5008419,
         "icon" : "https://maps.gstatic.com/mapfiles/place_api/icons/museum-71.png",
         "name" : "Legion of Honor",
         "rating" : 4.3,
         "place_id" : "ChIJabri1qyHhYARLE0Vd4zY_7k",
      },
      {
         "formatted_address" : "685 Mission St, San Francisco, CA 94105, United States",
         "lat" : 37.786562,
         "lng" : -122.401361,
         "icon" : "https://maps.gstatic.com/mapfiles/place_api/icons/museum-71.png",
         "name" : "Museum of the African Diaspora",
         "rating" : 4.1,
         "place_id" : "ChIJrV7u94eAhYARVQN3mR8cQGM",
      },
      {
         "formatted_address" : "Pier 15, The Embarcadero & Green St., San Francisco, CA 94111, United States",
         "lat" : 37.8008433,
         "lng" : -122.3986299,
         "icon" : "https://maps.gstatic.com/mapfiles/place_api/icons/museum-71.png",
         "name" : "Exploratorium",
         "rating" : 4.7,
         "place_id" : "ChIJk2vl5NSGhYARwPGvs_ubIws",
      },
      {
         "formatted_address" : "1201 Mason St, San Francisco, CA 94108, United States",
         "lat" : 37.7947043,
         "lng" : -122.4117199,
         "icon" : "https://maps.gstatic.com/mapfiles/place_api/icons/museum-71.png",
         "name" : "Cable Car Museum",
         "rating" : 4.5,
         "place_id" : "ChIJX1oMlvKAhYARNZquwetszd8",
      },
      {
         "formatted_address" : "221 4th St, San Francisco, CA 94103, United States",
         "lat" : 37.78331719999999,
         "lng" : -122.4021201,
         "icon" : "https://maps.gstatic.com/mapfiles/place_api/icons/museum-71.png",
         "name" : "Children's Creativity Museum",
         "rating" : 4.3,
         "place_id" : "ChIJt1SMQ4eAhYAR-8dkWSoHKZI",
      },
      {
         "formatted_address" : "655 Presidio Ave, San Francisco, CA 94115, United States",
         "lat" : 37.7857943,
         "lng" : -122.4466681,
         "icon" : "https://maps.gstatic.com/mapfiles/place_api/icons/museum-71.png",
         "name" : "San Francisco Fire Department Museum",
         "rating" : 3.8,
         "place_id" : "ChIJFe6ALcuAhYARzveAYJBhgwQ",
      },
      {
         "formatted_address" : "420 Montgomery St, San Francisco, CA 94104, United States",
         "lat" : 37.7933771,
         "lng" : -122.4026335,
         "icon" : "https://maps.gstatic.com/mapfiles/place_api/icons/museum-71.png",
         "name" : "Wells Fargo History Museum",
         "rating" : 4.6,
         "place_id" : "ChIJRTx8T4qAhYARrVWrDnGz8Oc",
      },
      {
         "formatted_address" : "175 Jefferson St, San Francisco, CA 94133, United States",
         "lat" : 37.8081571,
         "lng" : -122.415464,
         "icon" : "https://maps.gstatic.com/mapfiles/place_api/icons/museum-71.png",
         "name" : "Ripley's Believe It or Not Museum",
         "rating" : 3.9,
         "place_id" : "ChIJf1rSC-OAhYARTxu37gYw8RU",
      },
      {
         "formatted_address" : "45 Pier D7, San Francisco, CA 94133, United States",
         "lat" : 37.8093405,
         "lng" : -122.4160609,
         "icon" : "https://maps.gstatic.com/mapfiles/place_api/icons/museum-71.png",
         "name" : "Musée Mécanique",
         "rating" : 4.6,
         "place_id" : "ChIJCQAzVOKAhYARuOpiALmomu0",
      },
      {
         "formatted_address" : "4127 18th St, San Francisco, CA 94114, United States",
         "lat" : 37.7606979,
         "lng" : -122.4356494,
         "icon" : "https://maps.gstatic.com/mapfiles/place_api/icons/museum-71.png",
         "name" : "GLBT History Museum",
         "rating" : 4.3,
         "place_id" : "ChIJn8w1go6AhYARdfFGEuY4mIc",
      },
      {
         "formatted_address" : "2569 3rd St, San Francisco, CA 94107, United States",
         "lat" : 37.7568398,
         "lng" : -122.3877999,
         "icon" : "https://maps.gstatic.com/mapfiles/place_api/icons/museum-71.png",
         "name" : "The Museum of Craft and Design",
         "rating" : 4.2,
         "place_id" : "ChIJiaELzAR-j4ARq0FRvpCYv1Q",
      },
      {
         "formatted_address" : "77 Steuart St, San Francisco, CA 94105, United States",
         "lat" : 37.7938256,
         "lng" : -122.3935533,
         "icon" : "https://maps.gstatic.com/mapfiles/place_api/icons/museum-71.png",
         "name" : "San Francisco Railway Museum",
         "rating" : 3.7,
         "place_id" : "ChIJ_f7xMWSAhYARThFhbatwJak",
      },
      {
         "formatted_address" : "2 Marina Blvd, San Francisco, CA 94123, United States",
         "lat" : 37.80680579999999,
         "lng" : -122.4307443,
         "icon" : "https://maps.gstatic.com/mapfiles/place_api/icons/museum-71.png",
         "name" : "The Mexican Museum",
         "rating" : 3.5,
         "place_id" : "ChIJzQPIbdiAhYARAuQumH2RZN0",
      }

    ]
